{"type":"FeatureCollection","crs":{"type":"name","properties":{"name":"EPSG:3857"}},"features":[{"type":"Feature","id":1,"geometry":{"type":"Point","coordinates":[-912524.716499999,6959130.6572]},"properties":{"lat":52.870776,"lon":-8.197349,"bid":3492,"placename":"NENAGH","type_":"Superstore","a":-0.971976947551823,"b":-0.276286673522955,"OBJECTID":1,"Name":"NENAGH","DeliveryQuantities":300,"SpecialtyNames":null,"RouteName":null,"Sequence":null}},{"type":"Feature","id":2,"geometry":{"type":"Point","coordinates":[-1007213.5207,6881840.6067]},"properties":{"lat":52.449654,"lon":-9.047953,"bid":3494,"placename":"NEWCASTLE WEST","type_":"Superstore","a":-0.550854947551826,"b":0.574317326477043,"OBJECTID":2,"Name":"NEWCASTLE WEST","DeliveryQuantities":300,"SpecialtyNames":null,"RouteName":null,"Sequence":null}},{"type":"Feature","id":3,"geometry":{"type":"Point","coordinates":[-962333.509500001,6824790.6321]},"properties":{"lat":52.136205,"lon":-8.644789,"bid":3500,"placename":"MALLOW","type_":"Superstore","a":-0.23740594755182,"b":0.171153326477043,"OBJECTID":3,"Name":"MALLOW","DeliveryQuantities":300,"SpecialtyNames":null,"RouteName":null,"Sequence":null}},{"type":"Feature","id":4,"geometry":{"type":"Point","coordinates":[-707022.813999999,7116415.9549]},"properties":{"lat":53.715274,"lon":-6.351294,"bid":3501,"placename":"DROGHEDA","type_":"Metro","a":-1.81647494755182,"b":-2.12234167352295,"OBJECTID":4,"Name":"DROGHEDA","DeliveryQuantities":70,"SpecialtyNames":null,"RouteName":null,"Sequence":null}},{"type":"Feature","id":5,"geometry":{"type":"Point","coordinates":[-712961.152199999,7169802.9039]},"properties":{"lat":53.998134,"lon":-6.404639,"bid":3502,"placename":"DUNDALK","type_":"Metro","a":-2.09933494755182,"b":-2.06899667352295,"OBJECTID":5,"Name":"DUNDALK","DeliveryQuantities":70,"SpecialtyNames":null,"RouteName":null,"Sequence":null}},{"type":"Feature","id":6,"geometry":{"type":"Point","coordinates":[-713044.419199999,7171387.4123]},"properties":{"lat":54.0065,"lon":-6.405387,"bid":3503,"placename":"LONGWALK","type_":"Metro","a":-2.10770094755182,"b":-2.06824867352295,"OBJECTID":6,"Name":"LONGWALK","DeliveryQuantities":70,"SpecialtyNames":null,"RouteName":null,"Sequence":null}},{"type":"Feature","id":7,"geometry":{"type":"Point","coordinates":[-697522.029399998,7056579.8031]},"properties":{"lat":53.395968,"lon":-6.265947,"bid":3504,"placename":"BALLYMUN","type_":"Metro","a":-1.49716894755182,"b":-2.20768867352295,"OBJECTID":7,"Name":"BALLYMUN","DeliveryQuantities":70,"SpecialtyNames":null,"RouteName":null,"Sequence":null}},{"type":"Feature","id":8,"geometry":{"type":"Point","coordinates":[-943426.0053,6782055.3083]},"properties":{"lat":51.89995,"lon":-8.47494,"bid":3505,"placename":"PAUL ST CORK","type_":"Superstore","a":-0.00115094755182099,"b":0.00130432647704381,"OBJECTID":8,"Name":"PAUL ST CORK","DeliveryQuantities":300,"SpecialtyNames":null,"RouteName":null,"Sequence":null}},{"type":"Feature","id":9,"geometry":{"type":"Point","coordinates":[-676349.730099998,7010035.4712]},"properties":{"lat":53.145923,"lon":-6.075753,"bid":3506,"placename":"GREYSTONES","type_":"Superstore","a":-1.24712394755182,"b":-2.39788267352295,"OBJECTID":9,"Name":"GREYSTONES","DeliveryQuantities":300,"SpecialtyNames":null,"RouteName":null,"Sequence":null}},{"type":"Feature","id":10,"geometry":{"type":"Point","coordinates":[-791526.997900002,6846207.7685]},"properties":{"lat":52.254137,"lon":-7.110408,"bid":3507,"placename":"POLEBERRY","type_":"Superstore","a":-0.355337947551824,"b":-1.36322767352295,"OBJECTID":10,"Name":"POLEBERRY","DeliveryQuantities":300,"SpecialtyNames":null,"RouteName":null,"Sequence":null}},{"type":"Feature","id":11,"geometry":{"type":"Point","coordinates":[-794468.615400001,6845589.6942]},"properties":{"lat":52.250738,"lon":-7.136833,"bid":3508,"placename":"LISDUGGAN","type_":"Superstore","a":-0.351938947551822,"b":-1.33680267352295,"OBJECTID":11,"Name":"LISDUGGAN","DeliveryQuantities":300,"SpecialtyNames":null,"RouteName":null,"Sequence":null}},{"type":"Feature","id":12,"geometry":{"type":"Point","coordinates":[-694962.794300001,7044949.9046]},"properties":{"lat":53.333627,"lon":-6.242957,"bid":3510,"placename":"BAGGOT ST UPPER","type_":"Metro","a":-1.43482794755182,"b":-2.23067867352295,"OBJECTID":12,"Name":"BAGGOT ST UPPER","DeliveryQuantities":70,"SpecialtyNames":null,"RouteName":null,"Sequence":null}},{"type":"Feature","id":13,"geometry":{"type":"Point","coordinates":[-675037.718600001,7003164.5209]},"properties":{"lat":53.108887,"lon":-6.063967,"bid":3511,"placename":"KILCOOLE EXPRESS","type_":"Express","a":-1.21008794755182,"b":-2.40966867352295,"OBJECTID":13,"Name":"KILCOOLE EXPRESS","DeliveryQuantities":50,"SpecialtyNames":"2 Axel","RouteName":null,"Sequence":null}},{"type":"Feature","id":14,"geometry":{"type":"Point","coordinates":[-959224.690099999,6918588.6368]},"properties":{"lat":52.650385,"lon":-8.616862,"bid":3512,"placename":"ROXBORO","type_":"Superstore","a":-0.751585947551824,"b":0.143226326477043,"OBJECTID":14,"Name":"ROXBORO","DeliveryQuantities":300,"SpecialtyNames":null,"RouteName":null,"Sequence":null}},{"type":"Feature","id":15,"geometry":{"type":"Point","coordinates":[-1058777.5994,6810652.5317]},"properties":{"lat":52.058183,"lon":-9.511161,"bid":3513,"placename":"KILLARNEY","type_":"Superstore","a":-0.159383947551823,"b":1.03752532647704,"OBJECTID":15,"Name":"KILLARNEY","DeliveryQuantities":300,"SpecialtyNames":null,"RouteName":null,"Sequence":null}},{"type":"Feature","id":16,"geometry":{"type":"Point","coordinates":[-818625.3902,7081456.4658]},"properties":{"lat":53.529011,"lon":-7.353837,"bid":3514,"placename":"MULLINGAR","type_":"Superstore","a":-1.63021194755182,"b":-1.11979867352295,"OBJECTID":16,"Name":"MULLINGAR","DeliveryQuantities":300,"SpecialtyNames":null,"RouteName":null,"Sequence":null}},{"type":"Feature","id":17,"geometry":{"type":"Point","coordinates":[-831244.901700001,7032577.9295]},"properties":{"lat":53.267208,"lon":-7.4672,"bid":3515,"placename":"TULLAMORE SQUARE EXTRA","type_":"Extra","a":-1.36840894755182,"b":-1.00643567352295,"OBJECTID":17,"Name":"TULLAMORE SQUARE EXTRA","DeliveryQuantities":120,"SpecialtyNames":null,"RouteName":null,"Sequence":null}},{"type":"Feature","id":18,"geometry":{"type":"Point","coordinates":[-698344.903099999,7050227.4312]},"properties":{"lat":53.361928,"lon":-6.273339,"bid":3516,"placename":"PHIBSBORO","type_":"Metro","a":-1.46312894755182,"b":-2.20029667352295,"OBJECTID":18,"Name":"PHIBSBORO","DeliveryQuantities":70,"SpecialtyNames":null,"RouteName":null,"Sequence":null}},{"type":"Feature","id":19,"geometry":{"type":"Point","coordinates":[-699727.157200001,6923204.3845]},"properties":{"lat":52.675533,"lon":-6.285756,"bid":3517,"placename":"GOREY","type_":"Superstore","a":-0.776733947551825,"b":-2.18787967352295,"OBJECTID":19,"Name":"GOREY","DeliveryQuantities":300,"SpecialtyNames":null,"RouteName":null,"Sequence":null}},{"type":"Feature","id":20,"geometry":{"type":"Point","coordinates":[-700975.8279,7038063.3035]},"properties":{"lat":53.296669,"lon":-6.296973,"bid":3518,"placename":"RATHFARNHAM","type_":"Superstore","a":-1.39786994755182,"b":-2.17666267352295,"OBJECTID":20,"Name":"RATHFARNHAM","DeliveryQuantities":300,"SpecialtyNames":null,"RouteName":null,"Sequence":null}},{"type":"Feature","id":21,"geometry":{"type":"Point","coordinates":[-999230.577399999,6954463.3903]},"properties":{"lat":52.845461,"lon":-8.976241,"bid":3519,"placename":"ENNIS","type_":"Superstore","a":-0.946661947551824,"b":0.502605326477043,"OBJECTID":21,"Name":"ENNIS","DeliveryQuantities":300,"SpecialtyNames":null,"RouteName":null,"Sequence":null}},{"type":"Feature","id":22,"geometry":{"type":"Point","coordinates":[-960143.521200001,6921362.9429]},"properties":{"lat":52.665502,"lon":-8.625116,"bid":3521,"placename":"ARTHURS QUAY","type_":"Superstore","a":-0.76670294755182,"b":0.151480326477043,"OBJECTID":22,"Name":"ARTHURS QUAY","DeliveryQuantities":300,"SpecialtyNames":null,"RouteName":null,"Sequence":null}},{"type":"Feature","id":23,"geometry":{"type":"Point","coordinates":[-691956.500100002,7044875.1519]},"properties":{"lat":53.333226,"lon":-6.215951,"bid":3522,"placename":"SANDYMOUNT","type_":"Metro","a":-1.43442694755182,"b":-2.25768467352295,"OBJECTID":23,"Name":"SANDYMOUNT","DeliveryQuantities":70,"SpecialtyNames":null,"RouteName":null,"Sequence":null}},{"type":"Feature","id":24,"geometry":{"type":"Point","coordinates":[-701494.020100001,7044371.2886]},"properties":{"lat":53.330523,"lon":-6.301628,"bid":3523,"placename":"CRUMLIN","type_":"Metro","a":-1.43172394755182,"b":-2.17200767352295,"OBJECTID":24,"Name":"CRUMLIN","DeliveryQuantities":70,"SpecialtyNames":null,"RouteName":null,"Sequence":null}},{"type":"Feature","id":25,"geometry":{"type":"Point","coordinates":[-943607.9014,7221822.1004]},"properties":{"lat":54.271911,"lon":-8.476574,"bid":3524,"placename":"SLIGO","type_":"Superstore","a":-2.37311194755182,"b":0.00293832647704306,"OBJECTID":25,"Name":"SLIGO","DeliveryQuantities":300,"SpecialtyNames":null,"RouteName":null,"Sequence":null}},{"type":"Feature","id":26,"geometry":{"type":"Point","coordinates":[-686513.311000001,7055129.7312]},"properties":{"lat":53.3882,"lon":-6.167054,"bid":3527,"placename":"KILBARRACK","type_":"Metro","a":-1.48940094755182,"b":-2.30658167352295,"OBJECTID":26,"Name":"KILBARRACK","DeliveryQuantities":70,"SpecialtyNames":null,"RouteName":null,"Sequence":null}},{"type":"Feature","id":27,"geometry":{"type":"Point","coordinates":[-719117.342700001,7048525.0596]},"properties":{"lat":53.352801,"lon":-6.459941,"bid":3543,"placename":"LUCAN","type_":"Superstore","a":-1.45400194755182,"b":-2.01369467352295,"OBJECTID":27,"Name":"LUCAN","DeliveryQuantities":300,"SpecialtyNames":null,"RouteName":null,"Sequence":null}},{"type":"Feature","id":28,"geometry":{"type":"Point","coordinates":[-683405.159499999,7037232.276]},"properties":{"lat":53.292207,"lon":-6.139133,"bid":3548,"placename":"BLOOMFIELDS","type_":"Superstore","a":-1.39340794755182,"b":-2.33450267352295,"OBJECTID":28,"Name":"BLOOMFIELDS","DeliveryQuantities":300,"SpecialtyNames":null,"RouteName":null,"Sequence":null}},{"type":"Feature","id":29,"geometry":{"type":"Point","coordinates":[-947053.684900001,6778590.9162]},"properties":{"lat":51.880743,"lon":-8.507528,"bid":3549,"placename":"WILTON","type_":"Superstore","a":0.0180560524481734,"b":0.0338923264770443,"OBJECTID":29,"Name":"WILTON","DeliveryQuantities":300,"SpecialtyNames":null,"RouteName":null,"Sequence":null}},{"type":"Feature","id":30,"geometry":{"type":"Point","coordinates":[-719895.354600001,7076840.5318]},"properties":{"lat":53.504356,"lon":-6.46693,"bid":3550,"placename":"RATHOATH EXPRESS","type_":"Express","a":-1.60555694755182,"b":-2.00670567352295,"OBJECTID":30,"Name":"RATHOATH EXPRESS","DeliveryQuantities":50,"SpecialtyNames":"2 Axel","RouteName":null,"Sequence":null}},{"type":"Feature","id":31,"geometry":{"type":"Point","coordinates":[-775884.271699999,7217052.7068]},"properties":{"lat":54.246885,"lon":-6.969887,"bid":3551,"placename":"MONAGHAN","type_":"Metro","a":-2.34808594755182,"b":-1.50374867352295,"OBJECTID":31,"Name":"MONAGHAN","DeliveryQuantities":70,"SpecialtyNames":null,"RouteName":null,"Sequence":null}},{"type":"Feature","id":32,"geometry":{"type":"Point","coordinates":[-819212.043900002,7168500.8377]},"properties":{"lat":53.991258,"lon":-7.359107,"bid":3552,"placename":"CAVAN","type_":"Superstore","a":-2.09245894755182,"b":-1.11452867352295,"OBJECTID":32,"Name":"CAVAN","DeliveryQuantities":300,"SpecialtyNames":null,"RouteName":null,"Sequence":null}},{"type":"Feature","id":33,"geometry":{"type":"Point","coordinates":[-869570.6439,6923803.6647]},"properties":{"lat":52.678797,"lon":-7.811486,"bid":3553,"placename":"THURLES","type_":"Superstore","a":-0.779997947551827,"b":-0.662149673522956,"OBJECTID":33,"Name":"THURLES","DeliveryQuantities":300,"SpecialtyNames":null,"RouteName":null,"Sequence":null}},{"type":"Feature","id":34,"geometry":{"type":"Point","coordinates":[-883104.1996,7060774.3306]},"properties":{"lat":53.41843,"lon":-7.93306,"bid":3554,"placename":"GOLDEN ISLAND","type_":"Superstore","a":-1.51963094755182,"b":-0.540575673522956,"OBJECTID":34,"Name":"GOLDEN ISLAND","DeliveryQuantities":300,"SpecialtyNames":null,"RouteName":null,"Sequence":null}},{"type":"Feature","id":35,"geometry":{"type":"Point","coordinates":[-680013.0319,7019273.9082]},"properties":{"lat":53.19567,"lon":-6.108661,"bid":3558,"placename":"BRAY","type_":"Superstore","a":-1.29687094755182,"b":-2.36497467352295,"OBJECTID":35,"Name":"BRAY","DeliveryQuantities":300,"SpecialtyNames":null,"RouteName":null,"Sequence":null}},{"type":"Feature","id":36,"geometry":{"type":"Point","coordinates":[-692056.798999999,7054264.2569]},"properties":{"lat":53.383563,"lon":-6.216852,"bid":3559,"placename":"ARTANE CASTLE","type_":"Superstore","a":-1.48476394755182,"b":-2.25678367352295,"OBJECTID":36,"Name":"ARTANE CASTLE","DeliveryQuantities":300,"SpecialtyNames":null,"RouteName":null,"Sequence":null}},{"type":"Feature","id":37,"geometry":{"type":"Point","coordinates":[-911503.2489,7100455.8392]},"properties":{"lat":53.630341,"lon":-8.188173,"bid":3560,"placename":"ROSCOMMON","type_":"Superstore","a":-1.73154194755182,"b":-0.285462673522955,"OBJECTID":37,"Name":"ROSCOMMON","DeliveryQuantities":300,"SpecialtyNames":null,"RouteName":null,"Sequence":null}},{"type":"Feature","id":38,"geometry":{"type":"Point","coordinates":[-709344.827199999,7036277.5025]},"properties":{"lat":53.28708,"lon":-6.372153,"bid":3561,"placename":"TALLAGHT","type_":"Metro","a":-1.38828094755182,"b":-2.10148267352295,"OBJECTID":38,"Name":"TALLAGHT","DeliveryQuantities":70,"SpecialtyNames":null,"RouteName":null,"Sequence":null}},{"type":"Feature","id":39,"geometry":{"type":"Point","coordinates":[-697666.633400001,7036811.953]},"properties":{"lat":53.28995,"lon":-6.267246,"bid":3562,"placename":"NUTGROVE","type_":"Superstore","a":-1.39115094755182,"b":-2.20638967352295,"OBJECTID":39,"Name":"NUTGROVE","DeliveryQuantities":300,"SpecialtyNames":null,"RouteName":null,"Sequence":null}},{"type":"Feature","id":40,"geometry":{"type":"Point","coordinates":[-868038.5537,7119025.9488]},"properties":{"lat":53.729147,"lon":-7.797723,"bid":3564,"placename":"LONGFORD","type_":"Superstore","a":-1.83034794755182,"b":-0.675912673522955,"OBJECTID":40,"Name":"LONGFORD","DeliveryQuantities":300,"SpecialtyNames":null,"RouteName":null,"Sequence":null}},{"type":"Feature","id":41,"geometry":{"type":"Point","coordinates":[-682803.8116,7030581.783]},"properties":{"lat":53.256482,"lon":-6.133731,"bid":3566,"placename":"BALLYBRACK","type_":"Superstore","a":-1.35768294755182,"b":-2.33990467352295,"OBJECTID":41,"Name":"BALLYBRACK","DeliveryQuantities":300,"SpecialtyNames":null,"RouteName":null,"Sequence":null}},{"type":"Feature","id":42,"geometry":{"type":"Point","coordinates":[-1007127.8047,7035122.5045]},"properties":{"lat":53.280877,"lon":-9.047183,"bid":3569,"placename":"GALWAY","type_":"Superstore","a":-1.38207794755182,"b":0.573547326477044,"OBJECTID":42,"Name":"GALWAY","DeliveryQuantities":300,"SpecialtyNames":null,"RouteName":null,"Sequence":null}},{"type":"Feature","id":43,"geometry":{"type":"Point","coordinates":[-690154.5715,7036793.1442]},"properties":{"lat":53.289849,"lon":-6.199764,"bid":3571,"placename":"STILLORGAN","type_":"Superstore","a":-1.39104994755182,"b":-2.27387167352295,"OBJECTID":43,"Name":"STILLORGAN","DeliveryQuantities":300,"SpecialtyNames":null,"RouteName":null,"Sequence":null}},{"type":"Feature","id":44,"geometry":{"type":"Point","coordinates":[-691689.444699999,7042188.6226]},"properties":{"lat":53.318812,"lon":-6.213552,"bid":3572,"placename":"MERRION","type_":"Superstore","a":-1.42001294755182,"b":-2.26008367352295,"OBJECTID":44,"Name":"MERRION","DeliveryQuantities":300,"SpecialtyNames":null,"RouteName":null,"Sequence":null}},{"type":"Feature","id":45,"geometry":{"type":"Point","coordinates":[-697468.818700001,7047668.6958]},"properties":{"lat":53.348209,"lon":-6.265469,"bid":3573,"placename":"JERVIS ST","type_":"Metro","a":-1.44940994755182,"b":-2.20816667352295,"OBJECTID":45,"Name":"JERVIS ST","DeliveryQuantities":70,"SpecialtyNames":null,"RouteName":null,"Sequence":null}},{"type":"Feature","id":46,"geometry":{"type":"Point","coordinates":[-695531.302900001,7055859.9609]},"properties":{"lat":53.392112,"lon":-6.248064,"bid":3576,"placename":"SANTRY","type_":"Superstore","a":-1.49331294755182,"b":-2.22557167352295,"OBJECTID":46,"Name":"SANTRY","DeliveryQuantities":300,"SpecialtyNames":null,"RouteName":null,"Sequence":null}},{"type":"Feature","id":47,"geometry":{"type":"Point","coordinates":[-744518.780699998,7104982.4297]},"properties":{"lat":53.654447,"lon":-6.688126,"bid":3580,"placename":"NAVAN","type_":"Superstore","a":-1.75564794755182,"b":-1.78550967352295,"OBJECTID":47,"Name":"NAVAN","DeliveryQuantities":300,"SpecialtyNames":null,"RouteName":null,"Sequence":null}},{"type":"Feature","id":48,"geometry":{"type":"Point","coordinates":[-962499.375500001,6916911.3417]},"properties":{"lat":52.641243,"lon":-8.646279,"bid":3581,"placename":"DOORADOYLE","type_":"Superstore","a":-0.742443947551827,"b":0.172643326477043,"OBJECTID":48,"Name":"DOORADOYLE","DeliveryQuantities":300,"SpecialtyNames":null,"RouteName":null,"Sequence":null}},{"type":"Feature","id":49,"geometry":{"type":"Point","coordinates":[-695944.409600001,7045811.7551]},"properties":{"lat":53.33825,"lon":-6.251775,"bid":3583,"placename":"BAGGOT ST LOWER","type_":"Metro","a":-1.43945094755182,"b":-2.22186067352295,"OBJECTID":49,"Name":"BAGGOT ST LOWER","DeliveryQuantities":70,"SpecialtyNames":null,"RouteName":null,"Sequence":null}},{"type":"Feature","id":50,"geometry":{"type":"Point","coordinates":[-696135.433800001,7051682.3926]},"properties":{"lat":53.369727,"lon":-6.253491,"bid":3584,"placename":"DRUMCONDRA","type_":"Metro","a":-1.47092794755182,"b":-2.22014467352295,"OBJECTID":50,"Name":"DRUMCONDRA","DeliveryQuantities":70,"SpecialtyNames":null,"RouteName":null,"Sequence":null}},{"type":"Feature","id":51,"geometry":{"type":"Point","coordinates":[-697524.812399998,7042667.934]},"properties":{"lat":53.321384,"lon":-6.265972,"bid":3585,"placename":"RATHMINES","type_":"Metro","a":-1.42258494755182,"b":-2.20766367352295,"OBJECTID":51,"Name":"RATHMINES","DeliveryQuantities":70,"SpecialtyNames":null,"RouteName":null,"Sequence":null}},{"type":"Feature","id":52,"geometry":{"type":"Point","coordinates":[-1019159.7718,7192058.3698]},"properties":{"lat":54.115486,"lon":-9.155268,"bid":3587,"placename":"BALLINA","type_":"Superstore","a":-2.21668694755182,"b":0.681632326477043,"OBJECTID":52,"Name":"BALLINA","DeliveryQuantities":300,"SpecialtyNames":null,"RouteName":null,"Sequence":null}},{"type":"Feature","id":53,"geometry":{"type":"Point","coordinates":[-710462.4749,7054200.8012]},"properties":{"lat":53.383223,"lon":-6.382193,"bid":3589,"placename":"BLANCHARDSTOWN","type_":"Superstore","a":-1.48442394755182,"b":-2.09144267352295,"OBJECTID":53,"Name":"BLANCHARDSTOWN","DeliveryQuantities":300,"SpecialtyNames":null,"RouteName":null,"Sequence":null}},{"type":"Feature","id":54,"geometry":{"type":"Point","coordinates":[-694949.5473,7065916.7782]},"properties":{"lat":53.445952,"lon":-6.242838,"bid":3594,"placename":"SWORDS EXPRESS","type_":"Express","a":-1.54715294755182,"b":-2.23079767352295,"OBJECTID":54,"Name":"SWORDS EXPRESS","DeliveryQuantities":50,"SpecialtyNames":"2 Axel","RouteName":null,"Sequence":null}},{"type":"Feature","id":55,"geometry":{"type":"Point","coordinates":[-711729.2907,7042498.5317]},"properties":{"lat":53.320475,"lon":-6.393573,"bid":3595,"placename":"CLONDALKIN EXPRESS","type_":"Express","a":-1.42167594755182,"b":-2.08006267352295,"OBJECTID":55,"Name":"CLONDALKIN EXPRESS","DeliveryQuantities":50,"SpecialtyNames":"2 Axel","RouteName":null,"Sequence":null}},{"type":"Feature","id":56,"geometry":{"type":"Point","coordinates":[-699798.4016,7049166.2739]},"properties":{"lat":53.356239,"lon":-6.286396,"bid":3596,"placename":"PRUSSIA ST","type_":"Metro","a":-1.45743994755182,"b":-2.18723967352295,"OBJECTID":56,"Name":"PRUSSIA ST","DeliveryQuantities":70,"SpecialtyNames":null,"RouteName":null,"Sequence":null}},{"type":"Feature","id":57,"geometry":{"type":"Point","coordinates":[-707128.4562,7046413.5958]},"properties":{"lat":53.341478,"lon":-6.352243,"bid":3599,"placename":"BALLYFERMOT","type_":"Superstore","a":-1.44267894755182,"b":-2.12139267352295,"OBJECTID":57,"Name":"BALLYFERMOT","DeliveryQuantities":300,"SpecialtyNames":null,"RouteName":null,"Sequence":null}},{"type":"Feature","id":58,"geometry":{"type":"Point","coordinates":[-934680.746100001,6779517.1583]},"properties":{"lat":51.885879,"lon":-8.39638,"bid":3635,"placename":"MAHON POINT","type_":"Superstore","a":0.0129200524481731,"b":-0.0772556735229557,"OBJECTID":58,"Name":"MAHON POINT","DeliveryQuantities":300,"SpecialtyNames":null,"RouteName":null,"Sequence":null}},{"type":"Feature","id":59,"geometry":{"type":"Point","coordinates":[-920472.928199999,6847742.5213]},"properties":{"lat":52.262576,"lon":-8.268749,"bid":3640,"placename":"MITCHELSTOWN","type_":"Superstore","a":-0.363776947551826,"b":-0.204886673522956,"OBJECTID":59,"Name":"MITCHELSTOWN","DeliveryQuantities":300,"SpecialtyNames":null,"RouteName":null,"Sequence":null}},{"type":"Feature","id":60,"geometry":{"type":"Point","coordinates":[-687954.341800001,7057683.0282]},"properties":{"lat":53.401877,"lon":-6.179999,"bid":3644,"placename":"CLAREHALL EXTRA","type_":"Extra","a":-1.50307794755182,"b":-2.29363667352295,"OBJECTID":60,"Name":"CLAREHALL EXTRA","DeliveryQuantities":120,"SpecialtyNames":null,"RouteName":null,"Sequence":null}},{"type":"Feature","id":61,"geometry":{"type":"Point","coordinates":[-685844.5035,6944835.2806]},"properties":{"lat":52.793192,"lon":-6.161046,"bid":3665,"placename":"ARKLOW EXTRA","type_":"Extra","a":-0.894392947551821,"b":-2.31258967352295,"OBJECTID":61,"Name":"ARKLOW EXTRA","DeliveryQuantities":120,"SpecialtyNames":null,"RouteName":null,"Sequence":null}},{"type":"Feature","id":62,"geometry":{"type":"Point","coordinates":[-673349.892499998,6979655.0493]},"properties":{"lat":52.981924,"lon":-6.048805,"bid":3667,"placename":"WICKLOW","type_":"Superstore","a":-1.08312494755182,"b":-2.42483067352295,"OBJECTID":62,"Name":"WICKLOW","DeliveryQuantities":300,"SpecialtyNames":null,"RouteName":null,"Sequence":null}},{"type":"Feature","id":63,"geometry":{"type":"Point","coordinates":[-741146.9133,7023871.3967]},"properties":{"lat":53.220405,"lon":-6.657836,"bid":3674,"placename":"NAAS","type_":"Superstore","a":-1.32160594755182,"b":-1.81579967352295,"OBJECTID":63,"Name":"NAAS","DeliveryQuantities":300,"SpecialtyNames":null,"RouteName":null,"Sequence":null}},{"type":"Feature","id":64,"geometry":{"type":"Point","coordinates":[-694679.931499999,7036069.5048]},"properties":{"lat":53.285963,"lon":-6.240416,"bid":3677,"placename":"DUNDRUM TC","type_":"Superstore","a":-1.38716394755182,"b":-2.23321967352295,"OBJECTID":64,"Name":"DUNDRUM TC","DeliveryQuantities":300,"SpecialtyNames":null,"RouteName":null,"Sequence":null}},{"type":"Feature","id":65,"geometry":{"type":"Point","coordinates":[-1035785.7831,7142780.2745]},"properties":{"lat":53.855199,"lon":-9.304622,"bid":3679,"placename":"CASTLEBAR","type_":"Superstore","a":-1.95639994755182,"b":0.830986326477043,"OBJECTID":65,"Name":"CASTLEBAR","DeliveryQuantities":300,"SpecialtyNames":null,"RouteName":null,"Sequence":null}},{"type":"Feature","id":66,"geometry":{"type":"Point","coordinates":[-757623.645100001,7015057.5554]},"properties":{"lat":53.172973,"lon":-6.805849,"bid":3681,"placename":"NEWBRIDGE","type_":"Superstore","a":-1.27417394755182,"b":-1.66778667352295,"OBJECTID":66,"Name":"NEWBRIDGE","DeliveryQuantities":300,"SpecialtyNames":null,"RouteName":null,"Sequence":null}},{"type":"Feature","id":67,"geometry":{"type":"Point","coordinates":[-1056840.7516,6811180.8477]},"properties":{"lat":52.061101,"lon":-9.493762,"bid":3682,"placename":"KILLARNEY PARK","type_":"Superstore","a":-0.162301947551824,"b":1.02012632647704,"OBJECTID":67,"Name":"KILLARNEY PARK","DeliveryQuantities":300,"SpecialtyNames":null,"RouteName":null,"Sequence":null}},{"type":"Feature","id":68,"geometry":{"type":"Point","coordinates":[-700759.979400001,7054142.0118]},"properties":{"lat":53.382908,"lon":-6.295034,"bid":3683,"placename":"FINGLAS CLEARWATER EXTRA","type_":"Extra","a":-1.48410894755182,"b":-2.17860167352295,"OBJECTID":68,"Name":"FINGLAS CLEARWATER EXTRA","DeliveryQuantities":120,"SpecialtyNames":null,"RouteName":null,"Sequence":null}},{"type":"Feature","id":69,"geometry":{"type":"Point","coordinates":[-1077357.045,6848022.8057]},"properties":{"lat":52.264117,"lon":-9.678063,"bid":3684,"placename":"TRALEE MANOR","type_":"Superstore","a":-0.365317947551822,"b":1.20442732647704,"OBJECTID":69,"Name":"TRALEE MANOR","DeliveryQuantities":300,"SpecialtyNames":null,"RouteName":null,"Sequence":null}},{"type":"Feature","id":70,"geometry":{"type":"Point","coordinates":[-712270.080800001,7078091.8389]},"properties":{"lat":53.511041,"lon":-6.398431,"bid":3686,"placename":"ASHBOURNE","type_":"Superstore","a":-1.61224194755182,"b":-2.07520467352295,"OBJECTID":70,"Name":"ASHBOURNE","DeliveryQuantities":300,"SpecialtyNames":null,"RouteName":null,"Sequence":null}},{"type":"Feature","id":71,"geometry":{"type":"Point","coordinates":[-1080610.1345,6848855.5316]},"properties":{"lat":52.268695,"lon":-9.707286,"bid":3688,"placename":"TRALEE SQUARE","type_":"Superstore","a":-0.369895947551825,"b":1.23365032647704,"OBJECTID":71,"Name":"TRALEE SQUARE","DeliveryQuantities":300,"SpecialtyNames":null,"RouteName":null,"Sequence":null}},{"type":"Feature","id":72,"geometry":{"type":"Point","coordinates":[-910511.0583,6784997.6058]},"properties":{"lat":51.916256,"lon":-8.17926,"bid":3689,"placename":"MIDLETON","type_":"Superstore","a":-0.0174569475518211,"b":-0.294375673522957,"OBJECTID":72,"Name":"MIDLETON","DeliveryQuantities":300,"SpecialtyNames":null,"RouteName":null,"Sequence":null}},{"type":"Feature","id":73,"geometry":{"type":"Point","coordinates":[-860081.102499999,7352783.2459]},"properties":{"lat":54.953173,"lon":-7.72624,"bid":3692,"placename":"LETTERKENNY SQUARE","type_":"Superstore","a":-3.05437394755182,"b":-0.747395673522956,"OBJECTID":73,"Name":"LETTERKENNY SQUARE","DeliveryQuantities":300,"SpecialtyNames":null,"RouteName":null,"Sequence":null}},{"type":"Feature","id":74,"geometry":{"type":"Point","coordinates":[-770720.049199998,6952519.115]},"properties":{"lat":52.834911,"lon":-6.923496,"bid":3693,"placename":"CARLOW SQUARE","type_":"Superstore","a":-0.936111947551822,"b":-1.55013967352295,"OBJECTID":74,"Name":"CARLOW SQUARE","DeliveryQuantities":300,"SpecialtyNames":null,"RouteName":null,"Sequence":null}},{"type":"Feature","id":75,"geometry":{"type":"Point","coordinates":[-874442.5414,6792722.2048]},"properties":{"lat":51.959037,"lon":-7.855251,"bid":3694,"placename":"YOUGHAL","type_":"Superstore","a":-0.0602379475518262,"b":-0.618384673522956,"OBJECTID":75,"Name":"YOUGHAL","DeliveryQuantities":300,"SpecialtyNames":null,"RouteName":null,"Sequence":null}},{"type":"Feature","id":76,"geometry":{"type":"Point","coordinates":[-788778.853599999,6844376.0498]},"properties":{"lat":52.244063,"lon":-7.085721,"bid":3695,"placename":"ARDKEEN","type_":"Superstore","a":-0.345263947551821,"b":-1.38791467352295,"OBJECTID":76,"Name":"ARDKEEN","DeliveryQuantities":300,"SpecialtyNames":null,"RouteName":null,"Sequence":null}},{"type":"Feature","id":77,"geometry":{"type":"Point","coordinates":[-688121.432300001,7057494.4478]},"properties":{"lat":53.400867,"lon":-6.1815,"bid":4000,"placename":"CLAREHALL PFS","type_":"PFS","a":-1.50206794755182,"b":-2.29213567352295,"OBJECTID":77,"Name":"CLAREHALL PFS","DeliveryQuantities":60,"SpecialtyNames":null,"RouteName":null,"Sequence":null}},{"type":"Feature","id":78,"geometry":{"type":"Point","coordinates":[-732837.5812,7053919.5493]},"properties":{"lat":53.381716,"lon":-6.583192,"bid":4001,"placename":"MAYNOOTH PFS","type_":"PFS","a":-1.48291694755182,"b":-1.89044367352295,"OBJECTID":78,"Name":"MAYNOOTH PFS","DeliveryQuantities":60,"SpecialtyNames":null,"RouteName":null,"Sequence":null}},{"type":"Feature","id":79,"geometry":{"type":"Point","coordinates":[-685810.328400001,6945321.6674]},"properties":{"lat":52.795834,"lon":-6.160739,"bid":4002,"placename":"ARKLOW PFS","type_":"PFS","a":-0.897034947551823,"b":-2.31289667352295,"OBJECTID":79,"Name":"ARKLOW PFS","DeliveryQuantities":60,"SpecialtyNames":null,"RouteName":null,"Sequence":null}},{"type":"Feature","id":80,"geometry":{"type":"Point","coordinates":[-1056801.6784,6811194.9704]},"properties":{"lat":52.061179,"lon":-9.493411,"bid":4074,"placename":"KILLARNEY PARK PFS","type_":"PFS","a":-0.162379947551826,"b":1.01977532647704,"OBJECTID":80,"Name":"KILLARNEY PARK PFS","DeliveryQuantities":60,"SpecialtyNames":null,"RouteName":null,"Sequence":null}},{"type":"Feature","id":81,"geometry":{"type":"Point","coordinates":[-700877.421500001,7054304.0103]},"properties":{"lat":53.383776,"lon":-6.296089,"bid":4093,"placename":"FINGLAS CLEARWATER PFS","type_":"PFS","a":-1.48497694755182,"b":-2.17754667352295,"OBJECTID":81,"Name":"FINGLAS CLEARWATER PFS","DeliveryQuantities":60,"SpecialtyNames":null,"RouteName":null,"Sequence":null}},{"type":"Feature","id":82,"geometry":{"type":"Point","coordinates":[-788818.1494,6844214.4262]},"properties":{"lat":52.243174,"lon":-7.086074,"bid":4099,"placename":"ARDKEEN PFS","type_":"PFS","a":-0.344374947551827,"b":-1.38756167352295,"OBJECTID":82,"Name":"ARDKEEN PFS","DeliveryQuantities":60,"SpecialtyNames":null,"RouteName":null,"Sequence":null}},{"type":"Feature","id":83,"geometry":{"type":"Point","coordinates":[-694590.430599999,7035937.6703]},"properties":{"lat":53.285255,"lon":-6.239612,"bid":4102,"placename":"DUNDRUM TOWN CENTRE PFS","type_":"PFS","a":-1.38645594755182,"b":-2.23402367352295,"OBJECTID":83,"Name":"DUNDRUM TOWN CENTRE PFS","DeliveryQuantities":60,"SpecialtyNames":null,"RouteName":null,"Sequence":null}},{"type":"Feature","id":84,"geometry":{"type":"Point","coordinates":[-818548.023200002,7081261.8889]},"properties":{"lat":53.527972,"lon":-7.353142,"bid":4106,"placename":"MULLINGAR PFS","type_":"PFS","a":-1.62917294755182,"b":-1.12049367352295,"OBJECTID":84,"Name":"MULLINGAR PFS","DeliveryQuantities":60,"SpecialtyNames":null,"RouteName":null,"Sequence":null}},{"type":"Feature","id":85,"geometry":{"type":"Point","coordinates":[-771400.100000001,6870981.7171]},"properties":{"lat":52.390163,"lon":-6.929605,"bid":4135,"placename":"NEW ROSS PFS","type_":"PFS","a":-0.491363947551825,"b":-1.54403067352295,"OBJECTID":85,"Name":"NEW ROSS PFS","DeliveryQuantities":60,"SpecialtyNames":null,"RouteName":null,"Sequence":null}},{"type":"Feature","id":86,"geometry":{"type":"Point","coordinates":[-1001635.7463,7118175.6732]},"properties":{"lat":53.724628,"lon":-8.997847,"bid":4157,"placename":"CLAREMORRIS PFS","type_":"PFS","a":-1.82582894755182,"b":0.524211326477043,"OBJECTID":86,"Name":"CLAREMORRIS PFS","DeliveryQuantities":60,"SpecialtyNames":null,"RouteName":null,"Sequence":null}},{"type":"Feature","id":87,"geometry":{"type":"Point","coordinates":[-856474.351,6865741.5958]},"properties":{"lat":52.361426,"lon":-7.69384,"bid":4158,"placename":"CLONMEL PFS","type_":"PFS","a":-0.462626947551825,"b":-0.779795673522956,"OBJECTID":87,"Name":"CLONMEL PFS","DeliveryQuantities":60,"SpecialtyNames":null,"RouteName":null,"Sequence":null}},{"type":"Feature","id":88,"geometry":{"type":"Point","coordinates":[-719446.8484,6860216.1475]},"properties":{"lat":52.331104,"lon":-6.462901,"bid":4161,"placename":"WEXFORD PFS","type_":"PFS","a":-0.432304947551827,"b":-2.01073467352295,"OBJECTID":88,"Name":"WEXFORD PFS","DeliveryQuantities":60,"SpecialtyNames":null,"RouteName":null,"Sequence":null}},{"type":"Feature","id":89,"geometry":{"type":"Point","coordinates":[-784172.564399999,7047501.7977]},"properties":{"lat":53.347314,"lon":-7.044342,"bid":4163,"placename":"EDENDERRY PFS","type_":"PFS","a":-1.44851494755182,"b":-1.42929367352295,"OBJECTID":89,"Name":"EDENDERRY PFS","DeliveryQuantities":60,"SpecialtyNames":null,"RouteName":null,"Sequence":null}},{"type":"Feature","id":90,"geometry":{"type":"Point","coordinates":[-915569.861200001,7043526.3687]},"properties":{"lat":53.32599,"lon":-8.224704,"bid":4189,"placename":"BALLINASLOE PFS","type_":"PFS","a":-1.42719094755182,"b":-0.248931673522957,"OBJECTID":90,"Name":"BALLINASLOE PFS","DeliveryQuantities":60,"SpecialtyNames":null,"RouteName":null,"Sequence":null}},{"type":"Feature","id":91,"geometry":{"type":"Point","coordinates":[-710104.805399999,7114166.7416]},"properties":{"lat":53.703315,"lon":-6.37898,"bid":4190,"placename":"DROGHEDA PFS","type_":"PFS","a":-1.80451594755182,"b":-2.09465567352295,"OBJECTID":91,"Name":"DROGHEDA PFS","DeliveryQuantities":60,"SpecialtyNames":null,"RouteName":null,"Sequence":null}},{"type":"Feature","id":92,"geometry":{"type":"Point","coordinates":[-775655.510200001,7154459.3476]},"properties":{"lat":53.917035,"lon":-6.967832,"bid":4200,"placename":"BAILIEBOROUGH PFS","type_":"PFS","a":-2.01823594755182,"b":-1.50580367352295,"OBJECTID":92,"Name":"BAILIEBOROUGH PFS","DeliveryQuantities":60,"SpecialtyNames":null,"RouteName":null,"Sequence":null}},{"type":"Feature","id":93,"geometry":{"type":"Point","coordinates":[-797128.928599998,6829821.0918]},"properties":{"lat":52.163933,"lon":-7.160731,"bid":4202,"placename":"TRAMORE PFS","type_":"PFS","a":-0.265133947551824,"b":-1.31290467352295,"OBJECTID":93,"Name":"TRAMORE PFS","DeliveryQuantities":60,"SpecialtyNames":null,"RouteName":null,"Sequence":null}},{"type":"Feature","id":94,"geometry":{"type":"Point","coordinates":[-795114.713799998,6843187.3099]},"properties":{"lat":52.237524,"lon":-7.142637,"bid":4226,"placename":"BALLYBEG PFS","type_":"PFS","a":-0.338724947551824,"b":-1.33099867352295,"OBJECTID":94,"Name":"BALLYBEG PFS","DeliveryQuantities":60,"SpecialtyNames":null,"RouteName":null,"Sequence":null}},{"type":"Feature","id":95,"geometry":{"type":"Point","coordinates":[-965698.141100001,6923107.4463]},"properties":{"lat":52.675005,"lon":-8.675014,"bid":4241,"placename":"COONAGH PFS","type_":"PFS","a":-0.776205947551822,"b":0.201378326477042,"OBJECTID":95,"Name":"COONAGH PFS","DeliveryQuantities":60,"SpecialtyNames":null,"RouteName":null,"Sequence":null}},{"type":"Feature","id":96,"geometry":{"type":"Point","coordinates":[-899962.646000002,7159559.9596]},"properties":{"lat":53.944012,"lon":-8.084502,"bid":5162,"placename":"CARRICK ON SHANNON","type_":"Superstore","a":-2.04521294755182,"b":-0.389133673522955,"OBJECTID":96,"Name":"CARRICK ON SHANNON","DeliveryQuantities":300,"SpecialtyNames":null,"RouteName":null,"Sequence":null}},{"type":"Feature","id":97,"geometry":{"type":"Point","coordinates":[-681648.537900001,7025907.5185]},"properties":{"lat":53.231355,"lon":-6.123353,"bid":5163,"placename":"SHANKILL EXPRESS","type_":"Express","a":-1.33255594755182,"b":-2.35028267352295,"OBJECTID":97,"Name":"SHANKILL EXPRESS","DeliveryQuantities":50,"SpecialtyNames":"2 Axel","RouteName":null,"Sequence":null}},{"type":"Feature","id":98,"geometry":{"type":"Point","coordinates":[-958127.525199998,6925031.1906]},"properties":{"lat":52.685482,"lon":-8.607006,"bid":5180,"placename":"SHANNON BANKS EXPRESS","type_":"Express","a":-0.786682947551824,"b":0.133370326477043,"OBJECTID":98,"Name":"SHANNON BANKS EXPRESS","DeliveryQuantities":50,"SpecialtyNames":"2 Axel","RouteName":null,"Sequence":null}},{"type":"Feature","id":99,"geometry":{"type":"Point","coordinates":[-743890.9388,7037801.2467]},"properties":{"lat":53.295262,"lon":-6.682486,"bid":5236,"placename":"CLANE EXPRESS","type_":"Express","a":-1.39646294755182,"b":-1.79114967352295,"OBJECTID":99,"Name":"CLANE EXPRESS","DeliveryQuantities":50,"SpecialtyNames":"2 Axel","RouteName":null,"Sequence":null}},{"type":"Feature","id":100,"geometry":{"type":"Point","coordinates":[-909804.6248,6886605.795]},"properties":{"lat":52.475735,"lon":-8.172914,"bid":5237,"placename":"TIPPERARY","type_":"Superstore","a":-0.576935947551824,"b":-0.300721673522955,"OBJECTID":100,"Name":"TIPPERARY","DeliveryQuantities":300,"SpecialtyNames":null,"RouteName":null,"Sequence":null}},{"type":"Feature","id":101,"geometry":{"type":"Point","coordinates":[-784172.564399999,7047501.7977]},"properties":{"lat":53.347314,"lon":-7.044342,"bid":5296,"placename":"EDENDERRY","type_":"Superstore","a":-1.44851494755182,"b":-1.42929367352295,"OBJECTID":101,"Name":"EDENDERRY","DeliveryQuantities":300,"SpecialtyNames":null,"RouteName":null,"Sequence":null}},{"type":"Feature","id":102,"geometry":{"type":"Point","coordinates":[-856474.351,6865741.5958]},"properties":{"lat":52.361426,"lon":-7.69384,"bid":5297,"placename":"CLONMEL EXTRA","type_":"Extra","a":-0.462626947551825,"b":-0.779795673522956,"OBJECTID":102,"Name":"CLONMEL EXTRA","DeliveryQuantities":120,"SpecialtyNames":null,"RouteName":null,"Sequence":null}},{"type":"Feature","id":103,"geometry":{"type":"Point","coordinates":[-771598.805300001,6871143.5137]},"properties":{"lat":52.39105,"lon":-6.93139,"bid":5298,"placename":"NEW ROSS","type_":"Superstore","a":-0.492250947551823,"b":-1.54224567352295,"OBJECTID":103,"Name":"NEW ROSS","DeliveryQuantities":300,"SpecialtyNames":null,"RouteName":null,"Sequence":null}},{"type":"Feature","id":104,"geometry":{"type":"Point","coordinates":[-720235.435600001,7035103.1411]},"properties":{"lat":53.280773,"lon":-6.469985,"bid":5405,"placename":"RATHCOOLE EXPRESS","type_":"Express","a":-1.38197394755182,"b":-2.00365067352295,"OBJECTID":104,"Name":"RATHCOOLE EXPRESS","DeliveryQuantities":50,"SpecialtyNames":"2 Axel","RouteName":null,"Sequence":null}},{"type":"Feature","id":105,"geometry":{"type":"Point","coordinates":[-719170.330800001,6860530.2031]},"properties":{"lat":52.332828,"lon":-6.460417,"bid":5428,"placename":"WEXFORD EXTRA","type_":"Extra","a":-0.434028947551823,"b":-2.01321867352295,"OBJECTID":105,"Name":"WEXFORD EXTRA","DeliveryQuantities":120,"SpecialtyNames":null,"RouteName":null,"Sequence":null}},{"type":"Feature","id":106,"geometry":{"type":"Point","coordinates":[-880336.7971,6999647.4817]},"properties":{"lat":53.089917,"lon":-7.9082,"bid":5440,"placename":"BIRR","type_":"Superstore","a":-1.19111794755182,"b":-0.565435673522956,"OBJECTID":106,"Name":"BIRR","DeliveryQuantities":300,"SpecialtyNames":null,"RouteName":null,"Sequence":null}},{"type":"Feature","id":107,"geometry":{"type":"Point","coordinates":[-887214.226599999,7061525.628]},"properties":{"lat":53.422452,"lon":-7.969981,"bid":5467,"placename":"ATHLONE BAYLOUGH EXPRESS","type_":"Express","a":-1.52365294755182,"b":-0.503654673522956,"OBJECTID":107,"Name":"ATHLONE BAYLOUGH EXPRESS","DeliveryQuantities":50,"SpecialtyNames":"2 Axel","RouteName":null,"Sequence":null}},{"type":"Feature","id":108,"geometry":{"type":"Point","coordinates":[-728346.173700001,7046876.0075]},"properties":{"lat":53.343958,"lon":-6.542845,"bid":5490,"placename":"CELBRIDGE","type_":"Superstore","a":-1.44515894755182,"b":-1.93079067352295,"OBJECTID":108,"Name":"CELBRIDGE","DeliveryQuantities":300,"SpecialtyNames":null,"RouteName":null,"Sequence":null}},{"type":"Feature","id":109,"geometry":{"type":"Point","coordinates":[-1001635.7463,7118175.6732]},"properties":{"lat":53.724628,"lon":-8.997847,"bid":5499,"placename":"CLAREMORRIS","type_":"Superstore","a":-1.82582894755182,"b":0.524211326477043,"OBJECTID":109,"Name":"CLAREMORRIS","DeliveryQuantities":300,"SpecialtyNames":null,"RouteName":null,"Sequence":null}},{"type":"Feature","id":110,"geometry":{"type":"Point","coordinates":[-697384.104499999,7045026.1493]},"properties":{"lat":53.334036,"lon":-6.264708,"bid":5505,"placename":"CAMDEN ST EXPRESS","type_":"Express","a":-1.43523694755182,"b":-2.20892767352295,"OBJECTID":110,"Name":"CAMDEN ST EXPRESS","DeliveryQuantities":50,"SpecialtyNames":"2 Axel","RouteName":null,"Sequence":null}},{"type":"Feature","id":111,"geometry":{"type":"Point","coordinates":[-1035173.9711,6870559.4563]},"properties":{"lat":52.387848,"lon":-9.299126,"bid":5547,"placename":"ABBEYFEALE","type_":"Superstore","a":-0.489048947551822,"b":0.825490326477043,"OBJECTID":111,"Name":"ABBEYFEALE","DeliveryQuantities":300,"SpecialtyNames":null,"RouteName":null,"Sequence":null}},{"type":"Feature","id":112,"geometry":{"type":"Point","coordinates":[-965698.141100001,6923107.4463]},"properties":{"lat":52.675005,"lon":-8.675014,"bid":5548,"placename":"COONAGH","type_":"Superstore","a":-0.776205947551822,"b":0.201378326477042,"OBJECTID":112,"Name":"COONAGH","DeliveryQuantities":300,"SpecialtyNames":null,"RouteName":null,"Sequence":null}},{"type":"Feature","id":113,"geometry":{"type":"Point","coordinates":[-811967.260200001,7109711.5796]},"properties":{"lat":53.679617,"lon":-7.294026,"bid":5571,"placename":"CASTLEPOLLARD EXPRESS","type_":"Express","a":-1.78081794755182,"b":-1.17960967352295,"OBJECTID":113,"Name":"CASTLEPOLLARD EXPRESS","DeliveryQuantities":50,"SpecialtyNames":"2 Axel","RouteName":null,"Sequence":null}},{"type":"Feature","id":114,"geometry":{"type":"Point","coordinates":[-1058902.9451,7131983.3073]},"properties":{"lat":53.797952,"lon":-9.512287,"bid":5572,"placename":"WESTPORT","type_":"Superstore","a":-1.89915294755182,"b":1.03865132647704,"OBJECTID":114,"Name":"WESTPORT","DeliveryQuantities":300,"SpecialtyNames":null,"RouteName":null,"Sequence":null}},{"type":"Feature","id":115,"geometry":{"type":"Point","coordinates":[-703672.987799998,7045940.7704]},"properties":{"lat":53.338942,"lon":-6.321202,"bid":5573,"placename":"INCHICORE EXPRESS","type_":"Express","a":-1.44014294755182,"b":-2.15243367352295,"OBJECTID":115,"Name":"INCHICORE EXPRESS","DeliveryQuantities":50,"SpecialtyNames":"2 Axel","RouteName":null,"Sequence":null}},{"type":"Feature","id":116,"geometry":{"type":"Point","coordinates":[-1055087.4696,6917027.6512]},"properties":{"lat":52.641877,"lon":-9.478012,"bid":5592,"placename":"KILRUSH","type_":"Superstore","a":-0.743077947551825,"b":1.00437632647704,"OBJECTID":116,"Name":"KILRUSH","DeliveryQuantities":300,"SpecialtyNames":null,"RouteName":null,"Sequence":null}},{"type":"Feature","id":117,"geometry":{"type":"Point","coordinates":[-750185.276700001,6946060.1407]},"properties":{"lat":52.799845,"lon":-6.739029,"bid":5610,"placename":"TULLOW","type_":"Superstore","a":-0.901045947551821,"b":-1.73460667352295,"OBJECTID":117,"Name":"TULLOW","DeliveryQuantities":300,"SpecialtyNames":null,"RouteName":null,"Sequence":null}},{"type":"Feature","id":118,"geometry":{"type":"Point","coordinates":[-696436.107700001,7048129.5021]},"properties":{"lat":53.35068,"lon":-6.256192,"bid":5612,"placename":"TALBOT STREET EXPRESS","type_":"Express","a":-1.45188094755182,"b":-2.21744367352295,"OBJECTID":118,"Name":"TALBOT STREET EXPRESS","DeliveryQuantities":50,"SpecialtyNames":"2 Axel","RouteName":null,"Sequence":null}},{"type":"Feature","id":119,"geometry":{"type":"Point","coordinates":[-693172.999499999,7046363.0678]},"properties":{"lat":53.341207,"lon":-6.226879,"bid":5613,"placename":"RINGSEND EXPRESS","type_":"Express","a":-1.44240794755182,"b":-2.24675667352295,"OBJECTID":119,"Name":"RINGSEND EXPRESS","DeliveryQuantities":50,"SpecialtyNames":"2 Axel","RouteName":null,"Sequence":null}},{"type":"Feature","id":120,"geometry":{"type":"Point","coordinates":[-697304.0658,7048324.9472]},"properties":{"lat":53.351728,"lon":-6.263989,"bid":5614,"placename":"PARNELL ST","type_":"Metro","a":-1.45292894755182,"b":-2.20964667352295,"OBJECTID":120,"Name":"PARNELL ST","DeliveryQuantities":70,"SpecialtyNames":null,"RouteName":null,"Sequence":null}},{"type":"Feature","id":121,"geometry":{"type":"Point","coordinates":[-868152.656199999,7180086.4794]},"properties":{"lat":54.0524,"lon":-7.798748,"bid":5718,"placename":"BALLINAMORE","type_":"Superstore","a":-2.15360094755182,"b":-0.674887673522956,"OBJECTID":121,"Name":"BALLINAMORE","DeliveryQuantities":300,"SpecialtyNames":null,"RouteName":null,"Sequence":null}},{"type":"Feature","id":122,"geometry":{"type":"Point","coordinates":[-797258.9498,6829787.1554]},"properties":{"lat":52.163746,"lon":-7.161899,"bid":5741,"placename":"TRAMORE","type_":"Superstore","a":-0.264946947551827,"b":-1.31173667352295,"OBJECTID":122,"Name":"TRAMORE","DeliveryQuantities":300,"SpecialtyNames":null,"RouteName":null,"Sequence":null}},{"type":"Feature","id":123,"geometry":{"type":"Point","coordinates":[-1025950.3721,7099931.5408]},"properties":{"lat":53.627548,"lon":-9.216269,"bid":5742,"placename":"BALLINROBE","type_":"Superstore","a":-1.72874894755182,"b":0.742633326477044,"OBJECTID":123,"Name":"BALLINROBE","DeliveryQuantities":300,"SpecialtyNames":null,"RouteName":null,"Sequence":null}},{"type":"Feature","id":124,"geometry":{"type":"Point","coordinates":[-695723.774300002,7112893.7435]},"properties":{"lat":53.696545,"lon":-6.249793,"bid":5785,"placename":"BETTYSTOWN","type_":"Superstore","a":-1.79774594755182,"b":-2.22384267352295,"OBJECTID":124,"Name":"BETTYSTOWN","DeliveryQuantities":300,"SpecialtyNames":null,"RouteName":null,"Sequence":null}},{"type":"Feature","id":125,"geometry":{"type":"Point","coordinates":[-732891.7938,7053672.6456]},"properties":{"lat":53.380393,"lon":-6.583679,"bid":5790,"placename":"MAYNOOTH EXTRA","type_":"Extra","a":-1.48159394755182,"b":-1.88995667352295,"OBJECTID":125,"Name":"MAYNOOTH EXTRA","DeliveryQuantities":120,"SpecialtyNames":null,"RouteName":null,"Sequence":null}},{"type":"Feature","id":126,"geometry":{"type":"Point","coordinates":[-709612.5506,7113771.8458]},"properties":{"lat":53.701215,"lon":-6.374558,"bid":5794,"placename":"DROGHEDA EXTRA","type_":"Extra","a":-1.80241594755182,"b":-2.09907767352295,"OBJECTID":126,"Name":"DROGHEDA EXTRA","DeliveryQuantities":120,"SpecialtyNames":null,"RouteName":null,"Sequence":null}},{"type":"Feature","id":127,"geometry":{"type":"Point","coordinates":[-878305.772999998,6893216.0673]},"properties":{"lat":52.511889,"lon":-7.889955,"bid":5796,"placename":"CASHEL","type_":"Superstore","a":-0.61308994755182,"b":-0.583680673522956,"OBJECTID":127,"Name":"CASHEL","DeliveryQuantities":300,"SpecialtyNames":null,"RouteName":null,"Sequence":null}},{"type":"Feature","id":128,"geometry":{"type":"Point","coordinates":[-775771.282400001,7154651.0076]},"properties":{"lat":53.918049,"lon":-6.968872,"bid":5797,"placename":"BAILIESBORO","type_":"Superstore","a":-2.01924994755182,"b":-1.50476367352295,"OBJECTID":128,"Name":"BAILIESBORO","DeliveryQuantities":300,"SpecialtyNames":null,"RouteName":null,"Sequence":null}},{"type":"Feature","id":129,"geometry":{"type":"Point","coordinates":[-700445.056600001,7044915.7904]},"properties":{"lat":53.333444,"lon":-6.292205,"bid":5896,"placename":"DOLPHINS BARN EXPRESS","type_":"Express","a":-1.43464494755182,"b":-2.18143067352295,"OBJECTID":129,"Name":"DOLPHINS BARN EXPRESS","DeliveryQuantities":50,"SpecialtyNames":"2 Axel","RouteName":null,"Sequence":null}},{"type":"Feature","id":130,"geometry":{"type":"Point","coordinates":[-1006013.4966,7037698.8103]},"properties":{"lat":53.294712,"lon":-9.037173,"bid":5897,"placename":"HEADFORD ROAD EXPRESS","type_":"Express","a":-1.39591294755182,"b":0.563537326477042,"OBJECTID":130,"Name":"HEADFORD ROAD EXPRESS","DeliveryQuantities":50,"SpecialtyNames":"2 Axel","RouteName":null,"Sequence":null}},{"type":"Feature","id":131,"geometry":{"type":"Point","coordinates":[-878395.273899999,6893193.935]},"properties":{"lat":52.511768,"lon":-7.890759,"bid":5901,"placename":"CASHEL PFS","type_":"PFS","a":-0.61296894755182,"b":-0.582876673522956,"OBJECTID":131,"Name":"CASHEL PFS","DeliveryQuantities":60,"SpecialtyNames":null,"RouteName":null,"Sequence":null}},{"type":"Feature","id":132,"geometry":{"type":"Point","coordinates":[-939252.303599998,6778071.2137]},"properties":{"lat":51.877861,"lon":-8.437447,"bid":5963,"placename":"DOUGLAS EXTRA","type_":"Extra","a":0.020938052448173,"b":-0.0361886735229557,"OBJECTID":132,"Name":"DOUGLAS EXTRA","DeliveryQuantities":120,"SpecialtyNames":null,"RouteName":null,"Sequence":null}},{"type":"Feature","id":133,"geometry":{"type":"Point","coordinates":[-698855.0803,7046608.0665]},"properties":{"lat":53.342521,"lon":-6.277922,"bid":5980,"placename":"THOMAS STREET EXPRESS","type_":"Express","a":-1.44372194755182,"b":-2.19571367352295,"OBJECTID":133,"Name":"THOMAS STREET EXPRESS","DeliveryQuantities":50,"SpecialtyNames":"2 Axel","RouteName":null,"Sequence":null}},{"type":"Feature","id":134,"geometry":{"type":"Point","coordinates":[-946838.059,6780130.7438]},"properties":{"lat":51.889281,"lon":-8.505591,"bid":5981,"placename":"DENNEHEYS CROSS EXPRESS","type_":"Express","a":0.00951805244817904,"b":0.0319553264770444,"OBJECTID":134,"Name":"DENNEHEYS CROSS EXPRESS","DeliveryQuantities":50,"SpecialtyNames":"2 Axel","RouteName":null,"Sequence":null}},{"type":"Feature","id":135,"geometry":{"type":"Point","coordinates":[-915647.228300001,7043353.5933]},"properties":{"lat":53.325063,"lon":-8.225399,"bid":6010,"placename":"BALLINASLOE","type_":"Superstore","a":-1.42626394755182,"b":-0.248236673522956,"OBJECTID":135,"Name":"BALLINASLOE","DeliveryQuantities":300,"SpecialtyNames":null,"RouteName":null,"Sequence":null}},{"type":"Feature","id":136,"geometry":{"type":"Point","coordinates":[-703144.2203,7042417.4659]},"properties":{"lat":53.32004,"lon":-6.316452,"bid":6084,"placename":"CRUMLIN EXPRESS","type_":"Express","a":-1.42124094755182,"b":-2.15718367352295,"OBJECTID":136,"Name":"CRUMLIN EXPRESS","DeliveryQuantities":50,"SpecialtyNames":"2 Axel","RouteName":null,"Sequence":null}},{"type":"Feature","id":137,"geometry":{"type":"Point","coordinates":[-679699.556299999,7021006.0886]},"properties":{"lat":53.204991,"lon":-6.105845,"bid":6228,"placename":"BRAY EXPRESS","type_":"Express","a":-1.30619194755182,"b":-2.36779067352295,"OBJECTID":137,"Name":"BRAY EXPRESS","DeliveryQuantities":50,"SpecialtyNames":"2 Axel","RouteName":null,"Sequence":null}},{"type":"Feature","id":138,"geometry":{"type":"Point","coordinates":[-700836.344599999,7041457.5978]},"properties":{"lat":53.314889,"lon":-6.29572,"bid":6229,"placename":"KIMMAGE EXPRESS","type_":"Express","a":-1.41608994755182,"b":-2.17791567352295,"OBJECTID":138,"Name":"KIMMAGE EXPRESS","DeliveryQuantities":50,"SpecialtyNames":"2 Axel","RouteName":null,"Sequence":null}},{"type":"Feature","id":139,"geometry":{"type":"Point","coordinates":[-1008922.1635,7034383.9373]},"properties":{"lat":53.27691,"lon":-9.063302,"bid":6266,"placename":"GALWAY (NEWCASTLE)","type_":"Express","a":-1.37811094755182,"b":0.589666326477043,"OBJECTID":139,"Name":"GALWAY (NEWCASTLE)","DeliveryQuantities":50,"SpecialtyNames":"2 Axel","RouteName":null,"Sequence":null}},{"type":"Feature","id":140,"geometry":{"type":"Point","coordinates":[-790840.156599998,7067255.3473]},"properties":{"lat":53.453113,"lon":-7.104238,"bid":6267,"placename":"KINNEGAD","type_":"Superstore","a":-1.55431394755182,"b":-1.36939767352295,"OBJECTID":140,"Name":"KINNEGAD","DeliveryQuantities":300,"SpecialtyNames":null,"RouteName":null,"Sequence":null}},{"type":"Feature","id":141,"geometry":{"type":"Point","coordinates":[-994161.533,7033080.8602]},"properties":{"lat":53.26991,"lon":-8.930705,"bid":6268,"placename":"ORANMORE","type_":"Superstore","a":-1.37111094755182,"b":0.457069326477043,"OBJECTID":141,"Name":"ORANMORE","DeliveryQuantities":300,"SpecialtyNames":null,"RouteName":null,"Sequence":null}},{"type":"Feature","id":142,"geometry":{"type":"Point","coordinates":[-794805.356899999,6843101.3289]},"properties":{"lat":52.237051,"lon":-7.139858,"bid":6272,"placename":"BALLYBEG","type_":"Superstore","a":-0.338251947551825,"b":-1.33377767352295,"OBJECTID":142,"Name":"BALLYBEG","DeliveryQuantities":300,"SpecialtyNames":null,"RouteName":null,"Sequence":null}},{"type":"Feature","id":143,"geometry":{"type":"Point","coordinates":[-741596.866700001,7027424.4422]},"properties":{"lat":53.239511,"lon":-6.661878,"bid":6274,"placename":"NAAS EXTRA","type_":"Extra","a":-1.34071194755182,"b":-1.81175767352295,"OBJECTID":143,"Name":"NAAS EXTRA","DeliveryQuantities":120,"SpecialtyNames":null,"RouteName":null,"Sequence":null}},{"type":"Feature","id":144,"geometry":{"type":"Point","coordinates":[-996617.018399999,7158929.0346]},"properties":{"lat":53.940676,"lon":-8.952763,"bid":6281,"placename":"SWINFORD","type_":"Superstore","a":-2.04187694755182,"b":0.479127326477042,"OBJECTID":144,"Name":"SWINFORD","DeliveryQuantities":300,"SpecialtyNames":null,"RouteName":null,"Sequence":null}},{"type":"Feature","id":145,"geometry":{"type":"Point","coordinates":[-868111.356699999,6974944.0061]},"properties":{"lat":52.956437,"lon":-7.798377,"bid":6309,"placename":"ROSCREA","type_":"Superstore","a":-1.05763794755182,"b":-0.675258673522956,"OBJECTID":145,"Name":"ROSCREA","DeliveryQuantities":300,"SpecialtyNames":null,"RouteName":null,"Sequence":null}},{"type":"Feature","id":146,"geometry":{"type":"Point","coordinates":[-693605.141800001,7050684.6548]},"properties":{"lat":53.364379,"lon":-6.230761,"bid":6330,"placename":"FAIRVIEW EXPRESS","type_":"Express","a":-1.46557994755182,"b":-2.24287467352295,"OBJECTID":146,"Name":"FAIRVIEW EXPRESS","DeliveryQuantities":50,"SpecialtyNames":"2 Axel","RouteName":null,"Sequence":null}},{"type":"Feature","id":147,"geometry":{"type":"Point","coordinates":[-696885.515700001,7047213.5663]},"properties":{"lat":53.3457683,"lon":-6.2602291,"bid":6387,"placename":"TEMPLE BAR","type_":"Metro","a":-1.44696924755182,"b":-2.21340657352295,"OBJECTID":147,"Name":"TEMPLE BAR","DeliveryQuantities":70,"SpecialtyNames":null,"RouteName":null,"Sequence":null}},{"type":"Feature","id":148,"geometry":{"type":"Point","coordinates":[-812344.0766,6989050.6785]},"properties":{"lat":53.03271,"lon":-7.297411,"bid":6397,"placename":"PORTLAOISE EXTRA","type_":"Extra","a":-1.13391094755182,"b":-1.17622467352295,"OBJECTID":148,"Name":"PORTLAOISE EXTRA","DeliveryQuantities":120,"SpecialtyNames":null,"RouteName":null,"Sequence":null}},{"type":"Feature","id":149,"geometry":{"type":"Point","coordinates":[-690092.566599999,7096327.7173]},"properties":{"lat":53.608345,"lon":-6.199207,"bid":6398,"placename":"BALBRIGGAN EXTRA","type_":"Extra","a":-1.70954594755182,"b":-2.27442867352295,"OBJECTID":149,"Name":"BALBRIGGAN EXTRA","DeliveryQuantities":120,"SpecialtyNames":null,"RouteName":null,"Sequence":null}},{"type":"Feature","id":150,"geometry":{"type":"Point","coordinates":[-701323.478700001,7049986.6112]},"properties":{"lat":53.360637,"lon":-6.300096,"bid":6454,"placename":"CABRA","type_":"Superstore","a":-1.46183794755182,"b":-2.17353967352295,"OBJECTID":150,"Name":"CABRA","DeliveryQuantities":300,"SpecialtyNames":null,"RouteName":null,"Sequence":null}},{"type":"Feature","id":151,"geometry":{"type":"Point","coordinates":[-726994.9778,7045370.4715]},"properties":{"lat":53.335883,"lon":-6.530707,"bid":6455,"placename":"HAZELHATCH ROAD EXPRESS","type_":"Express","a":-1.43708394755182,"b":-1.94292867352295,"OBJECTID":151,"Name":"HAZELHATCH ROAD EXPRESS","DeliveryQuantities":50,"SpecialtyNames":"2 Axel","RouteName":null,"Sequence":null}},{"type":"Feature","id":152,"geometry":{"type":"Point","coordinates":[-742497.998,7057797.4856]},"properties":{"lat":53.40249,"lon":-6.669973,"bid":6456,"placename":"KILCOCK EXPRESS","type_":"Express","a":-1.50369094755182,"b":-1.80366267352295,"OBJECTID":152,"Name":"KILCOCK EXPRESS","DeliveryQuantities":50,"SpecialtyNames":"2 Axel","RouteName":null,"Sequence":null}},{"type":"Feature","id":153,"geometry":{"type":"Point","coordinates":[-712228.558600001,7057873.667]},"properties":{"lat":53.402898,"lon":-6.398058,"bid":6486,"placename":"MULHUDDART EXPRESS","type_":"Express","a":-1.50409894755182,"b":-2.07557767352295,"OBJECTID":153,"Name":"MULHUDDART EXPRESS","DeliveryQuantities":50,"SpecialtyNames":"2 Axel","RouteName":null,"Sequence":null}},{"type":"Feature","id":154,"geometry":{"type":"Point","coordinates":[-770160.334800001,7012059.5196]},"properties":{"lat":53.156827,"lon":-6.918468,"bid":6509,"placename":"KILDARE","type_":"Superstore","a":-1.25802794755182,"b":-1.55516767352295,"OBJECTID":154,"Name":"KILDARE","DeliveryQuantities":300,"SpecialtyNames":null,"RouteName":null,"Sequence":null}},{"type":"Feature","id":155,"geometry":{"type":"Point","coordinates":[-679342.443300001,7080302.1836]},"properties":{"lat":53.522847,"lon":-6.102637,"bid":6510,"placename":"RUSH","type_":"Superstore","a":-1.62404794755182,"b":-2.37099867352295,"OBJECTID":155,"Name":"RUSH","DeliveryQuantities":300,"SpecialtyNames":null,"RouteName":null,"Sequence":null}},{"type":"Feature","id":156,"geometry":{"type":"Point","coordinates":[-702705.955400001,7054499.4207]},"properties":{"lat":53.384823,"lon":-6.312515,"bid":6514,"placename":"CARDIFSBRIDGE ROAD EXPRESS","type_":"Express","a":-1.48602394755182,"b":-2.16112067352295,"OBJECTID":156,"Name":"CARDIFSBRIDGE ROAD EXPRESS","DeliveryQuantities":50,"SpecialtyNames":"2 Axel","RouteName":null,"Sequence":null}},{"type":"Feature","id":157,"geometry":{"type":"Point","coordinates":[-693171.5671,7046399.0751]},"properties":{"lat":null,"lon":null,"bid":null,"placename":null,"type_":"Metro","a":null,"b":null,"OBJECTID":157,"Name":null,"DeliveryQuantities":70,"SpecialtyNames":null,"RouteName":null,"Sequence":null}},{"type":"Feature","id":158,"geometry":{"type":"Point","coordinates":[-728085.9789,7160073.1477]},"properties":{"lat":null,"lon":null,"bid":null,"placename":null,"type_":"Extra","a":null,"b":null,"OBJECTID":158,"Name":null,"DeliveryQuantities":120,"SpecialtyNames":null,"RouteName":null,"Sequence":null}}]}